City_ID,City,Country,Lat,Lng,Max Temp,Humidity,Cloudiness,Wind Speed,Current Description
0,Coahuayana,MX,18.7333,-103.6833,75.51,66,41,4.14,scattered clouds
1,Yumen,CN,40.2833,97.2,53.42,50,17,17.2,few clouds
2,Albany,US,42.6001,-73.9662,61.45,47,73,9.1,broken clouds
3,Esmeraldas,BR,-19.7625,-44.3139,76.06,66,100,5.77,overcast clouds
4,Mataura,NZ,-46.1927,168.8643,54.48,76,90,12.1,overcast clouds
5,Dingle,PH,10.9995,122.6711,84.61,74,94,11.01,overcast clouds
6,Montevideo,UY,-34.8335,-56.1674,65.91,45,0,11.5,clear sky
7,Saint George,US,37.1041,-113.5841,71.64,12,0,16.11,clear sky
8,Port Hardy,CA,50.6996,-127.4199,45.72,92,100,11.65,light rain
9,Panaba,MX,21.2833,-88.2667,80.11,64,0,15.39,clear sky
10,Ust-Tsilma,RU,65.441,52.1498,31.1,89,100,4.29,overcast clouds
11,Port Alfred,ZA,-33.5906,26.891,57.18,76,100,5.99,overcast clouds
12,Anadyr,RU,64.75,177.4833,30.7,64,0,8.95,clear sky
13,Kodiak,US,57.79,-152.4072,53.11,54,75,8.05,broken clouds
14,Pocone,BR,-16.2567,-56.6228,81.68,63,100,4.83,overcast clouds
15,Atuona,PF,-9.8,-139.0333,79.07,74,24,17.07,few clouds
16,Hilo,US,19.7297,-155.09,83.28,84,100,4.0,overcast clouds
17,Cidreira,BR,-30.1811,-50.2056,68.68,87,0,20.42,clear sky
18,Jamestown,US,42.097,-79.2353,73.04,40,0,5.75,clear sky
19,Araouane,ML,18.9048,-3.5265,76.15,23,0,9.64,clear sky
20,Arraial Do Cabo,BR,-22.9661,-42.0278,75.11,76,100,10.96,overcast clouds
21,Okha,RU,53.5739,142.9478,31.68,73,100,9.01,overcast clouds
22,Dryden,CA,49.7833,-92.7503,34.09,100,100,8.05,overcast clouds
23,Yellowknife,CA,62.456,-114.3525,37.92,52,20,13.8,few clouds
24,Avarua,CK,-21.2078,-159.775,82.45,78,20,5.75,few clouds
25,Amahai,ID,-3.3333,128.9167,85.1,69,100,1.34,overcast clouds
26,Butaritari,KI,3.0707,172.7902,81.36,77,49,10.96,scattered clouds
27,Parry Sound,CA,45.3501,-80.033,57.04,92,100,12.33,overcast clouds
28,Necochea,AR,-38.5473,-58.7368,68.11,44,100,18.59,overcast clouds
29,Inta,RU,66.0317,60.1659,20.1,97,82,6.96,broken clouds
30,Asau,RO,46.4333,26.4,52.72,97,100,4.45,light rain
31,Qaanaaq,GL,77.484,-69.3632,0.66,67,49,6.82,scattered clouds
32,Kruisfontein,ZA,-34.0033,24.7314,52.88,78,100,5.95,overcast clouds
33,Miguel Auza,MX,24.2933,-103.4503,81.86,10,85,12.82,overcast clouds
34,Nemuro,JP,43.3236,145.575,44.47,63,100,15.23,overcast clouds
35,Qorveh,IR,35.1664,47.8045,50.54,60,100,4.74,overcast clouds
36,Badarwas,IN,24.9667,77.5667,81.59,17,0,3.78,clear sky
37,Longyearbyen,SJ,78.2186,15.6401,8.44,61,75,11.5,light snow
38,Hithadhoo,MV,-0.6,73.0833,84.16,73,100,8.08,overcast clouds
39,Severnoye,RU,56.3491,78.3619,35.13,63,25,5.93,scattered clouds
40,Kavieng,PG,-2.5744,150.7967,84.83,69,100,7.52,light rain
41,Sangar,RU,63.9242,127.4739,23.0,87,94,6.87,overcast clouds
42,Svetlogorsk,BY,52.6333,29.7333,47.89,82,100,7.76,overcast clouds
43,Sao Filipe,CV,14.8961,-24.4956,74.1,75,6,3.53,clear sky
44,Mar Del Plata,AR,-38.0023,-57.5575,64.87,70,53,14.0,broken clouds
45,Mareeba,AU,-17.0,145.4333,75.43,94,100,4.52,light rain
46,Gunnedah,AU,-30.9833,150.25,68.72,44,98,10.6,overcast clouds
47,Ushuaia,AR,-54.8,-68.3,36.01,88,60,3.04,broken clouds
48,Punta Arenas,CL,-53.15,-70.9167,41.11,93,100,6.91,light rain
49,Urengoy,RU,65.9667,78.3667,10.36,95,99,5.66,overcast clouds
50,Tautira,PF,-17.7333,-149.15,80.8,70,19,7.29,light rain
51,Provideniya,RU,64.3833,-173.3,35.71,64,0,4.47,clear sky
52,Kidal,ML,18.4411,1.4078,78.87,10,0,10.04,clear sky
53,Verkhoyansk,RU,67.5447,133.385,20.3,84,100,3.27,overcast clouds
54,Saskylakh,RU,71.9167,114.0833,8.55,94,90,2.37,overcast clouds
55,Road Town,VG,18.4167,-64.6167,77.04,73,20,8.05,few clouds
56,Caserta,IT,41.0832,14.3349,57.67,91,38,2.84,scattered clouds
57,Blythe,US,33.6103,-114.5964,84.65,5,0,16.11,clear sky
58,Port Elizabeth,ZA,-33.918,25.5701,57.31,72,100,8.01,overcast clouds
59,Constitucion,CL,-35.3333,-72.4167,54.27,92,87,3.0,overcast clouds
60,Bredasdorp,ZA,-34.5322,20.0403,56.21,75,75,4.94,broken clouds
61,Zyryanka,RU,65.75,150.85,22.39,92,100,16.15,light snow
62,Rikitea,PF,-23.1203,-134.9692,73.36,85,100,13.29,moderate rain
63,Khatanga,RU,71.9667,102.5,0.79,95,88,5.79,overcast clouds
64,Misratah,LY,32.3754,15.0925,62.62,75,100,12.01,overcast clouds
65,Barrow,US,71.2906,-156.7887,19.42,73,75,10.36,broken clouds
66,Bluff,NZ,-46.6,168.3333,54.81,80,91,29.24,overcast clouds
67,Darnah,LY,32.767,22.6367,59.77,82,100,9.04,overcast clouds
68,Lompoc,US,34.6391,-120.4579,79.57,76,0,18.01,clear sky
69,Natitingou,BJ,10.3042,1.3796,79.2,67,72,4.47,broken clouds
70,Flinders,AU,-34.5833,150.8552,65.17,90,100,11.01,overcast clouds
71,Eenhana,NA,-17.4667,16.3333,62.53,48,6,4.03,clear sky
72,Lavrentiya,RU,65.5833,-171.0,27.86,76,51,4.32,broken clouds
73,Mahebourg,MU,-20.4081,57.7,75.25,72,13,16.62,few clouds
74,Pangnirtung,CA,66.1451,-65.7125,21.38,88,100,5.01,overcast clouds
75,Iwanai,JP,42.9744,140.5089,58.64,39,54,4.74,broken clouds
76,Carnarvon,AU,-24.8667,113.6333,75.27,78,51,5.75,broken clouds
77,Vila Franca Do Campo,PT,37.7167,-25.4333,57.61,81,38,11.41,scattered clouds
78,Amalapuram,IN,16.5833,82.0167,82.02,84,0,4.05,clear sky
79,Anloga,GH,5.7947,0.8973,81.82,81,100,7.7,overcast clouds
80,Nabire,ID,-3.3667,135.4833,85.26,68,19,2.59,few clouds
81,Faanui,PF,-16.4833,-151.75,81.34,72,29,7.2,light rain
82,Bonthe,SL,7.5264,-12.505,76.14,80,100,10.98,overcast clouds
83,Bairnsdale,AU,-37.8333,147.6167,63.05,76,100,1.01,overcast clouds
84,Champerico,GT,14.3,-91.9167,83.95,67,7,5.88,clear sky
85,Santa Cruz De La Palma,ES,28.6835,-17.7642,66.34,77,75,10.36,broken clouds
86,Zabaykalsk,RU,49.6333,117.3167,38.86,25,100,13.42,light rain
87,Kabinda,CD,-6.1333,24.4833,65.98,96,52,1.74,broken clouds
88,Sao Jose Do Egito,BR,-7.4789,-37.2744,69.46,77,99,7.2,overcast clouds
89,Thatta,PK,24.7475,67.9235,79.92,63,0,16.22,clear sky
90,College,US,64.8569,-147.8028,52.12,33,75,6.91,broken clouds
91,East London,ZA,-33.0153,27.9116,61.83,72,58,15.88,broken clouds
92,Busselton,AU,-33.65,115.3333,68.56,50,100,11.3,light rain
93,Pahrump,US,36.2083,-115.9839,75.25,10,7,8.99,clear sky
94,Tuktoyaktuk,CA,69.4541,-133.0374,32.04,88,100,4.0,overcast clouds
95,Vaini,TO,-21.2,-175.2,78.96,83,75,5.75,broken clouds
96,Mala,PE,-12.6581,-76.6308,68.09,86,32,6.6,scattered clouds
97,Shimoda,JP,34.6667,138.95,69.19,77,75,3.62,broken clouds
98,Lowestoft,GB,52.4752,1.7516,45.95,93,6,15.17,clear sky
99,Hermanus,ZA,-34.4187,19.2345,58.78,72,96,3.56,overcast clouds
100,Severo-Kurilsk,RU,50.6789,156.125,34.0,90,88,1.81,overcast clouds
101,Fairbanks,US,64.8378,-147.7164,52.14,33,0,6.91,clear sky
102,Thompson,CA,55.7435,-97.8558,15.89,67,1,13.78,clear sky
103,Rakaia,NZ,-43.75,172.0167,68.38,44,0,10.49,clear sky
104,Pachino,IT,36.7186,15.0907,58.46,67,1,1.39,clear sky
105,Edd,ER,13.9297,41.6925,87.51,58,49,13.33,scattered clouds
106,Poum,NC,-20.2333,164.0167,77.58,70,94,15.03,overcast clouds
107,Vinh,VN,18.6667,105.6667,83.55,70,2,3.83,clear sky
108,Sheridan,US,44.8333,-106.9173,46.78,44,0,9.22,clear sky
109,Malanje,AO,-9.5402,16.341,62.13,89,95,1.54,overcast clouds
110,Puerto Ayora,EC,-0.7393,-90.3518,72.37,89,73,6.71,broken clouds
111,Ketchikan,US,55.3422,-131.6461,46.38,87,100,5.75,moderate rain
112,Jinxiang,CN,27.4327,120.6062,72.0,85,89,7.23,overcast clouds
113,Durango,MX,24.8333,-104.8333,76.33,12,0,22.32,clear sky
114,Tuyen Quang,VN,21.8233,105.2181,78.96,85,100,2.15,overcast clouds
115,Chuy,UY,-33.6971,-53.4616,64.36,62,0,13.06,light rain
116,Boksitogorsk,RU,59.474,33.8485,39.6,95,100,8.32,light rain
117,Killybegs,IE,54.6333,-8.45,48.13,74,75,5.37,broken clouds
118,Clyde River,CA,70.4692,-68.5914,7.45,96,100,4.34,overcast clouds
119,Tigzirt,DZ,36.8886,4.1198,55.99,72,100,5.66,overcast clouds
120,Pochutla,MX,15.7432,-96.4661,82.81,63,41,5.35,scattered clouds
121,Georgetown,MY,5.4112,100.3354,84.13,79,20,0.0,few clouds
122,Fortuna,US,40.5982,-124.1573,59.94,72,0,12.66,clear sky
123,Margate,GB,51.3813,1.3862,48.31,84,0,7.0,clear sky
124,Baracoa,CU,20.3467,-74.4958,76.35,80,100,13.53,overcast clouds
125,Sept-Iles,CA,50.2001,-66.3821,37.06,70,100,7.34,overcast clouds
126,Neuquen,AR,-38.9516,-68.0591,57.09,38,0,24.16,clear sky
127,Atbasar,KZ,51.8,68.3333,33.12,54,7,7.87,clear sky
128,Linhares,BR,-19.3911,-40.0722,75.09,89,9,6.98,clear sky
129,Praia Da Vitoria,PT,38.7333,-27.0667,56.75,80,13,18.12,few clouds
130,Placido De Castro,BR,-10.3353,-67.1856,74.46,98,91,2.64,overcast clouds
131,Guilin,CN,25.2819,110.2864,74.57,93,100,4.32,overcast clouds
132,Hambantota,LK,6.1241,81.1185,75.54,100,75,3.44,broken clouds
133,New Lenox,US,41.512,-87.9656,66.09,80,40,7.0,scattered clouds
134,La Ronge,CA,55.1001,-105.2842,32.45,74,100,8.14,overcast clouds
135,Benguela,AO,-12.5763,13.4055,74.12,89,80,3.18,broken clouds
136,Walvis Bay,NA,-22.9575,14.5053,58.96,73,0,11.12,clear sky
137,Tateyama,JP,34.9833,139.8667,66.87,75,11,1.54,few clouds
138,Cape Town,ZA,-33.9258,18.4232,57.9,79,0,8.99,clear sky
139,Iqaluit,CA,63.7506,-68.5145,20.7,85,100,13.0,overcast clouds
140,Totness,SR,5.8833,-56.3167,78.19,89,100,10.85,overcast clouds
141,Saquarema,BR,-22.92,-42.5103,74.19,80,99,8.01,overcast clouds
142,Mocuba,MZ,-16.8392,36.9856,69.01,99,38,4.23,scattered clouds
143,Kasongo-Lunda,CD,-6.4667,16.8167,71.26,95,96,1.45,overcast clouds
144,Klaksvik,FO,62.2266,-6.589,38.32,83,100,16.35,overcast clouds
145,Ahipara,NZ,-35.1667,173.1667,65.08,73,98,12.21,overcast clouds
146,Gazli,UZ,40.1333,63.45,59.85,51,0,9.33,clear sky
147,Richards Bay,ZA,-28.783,32.0377,66.49,92,100,11.07,light rain
148,Hasaki,JP,35.7333,140.8333,73.29,73,63,3.65,broken clouds
149,Ustye,RU,59.6304,39.736,36.82,90,100,8.93,overcast clouds
150,New Norfolk,AU,-42.7826,147.0587,56.91,80,100,1.68,overcast clouds
151,Bestobe,KZ,52.4994,73.0975,32.58,50,6,6.73,clear sky
152,Isangel,VU,-19.55,169.2667,79.45,67,100,18.43,overcast clouds
153,Ballina,AU,-28.8667,153.5667,73.58,72,99,12.48,overcast clouds
154,Grindavik,IS,63.8424,-22.4338,43.27,93,100,11.5,overcast clouds
155,Muromtsevo,RU,56.3724,75.2418,33.73,67,13,6.71,few clouds
156,Saint-Pierre,RE,-21.3393,55.4781,74.88,72,75,17.27,broken clouds
157,Harper,LR,4.375,-7.7169,80.31,84,100,2.8,moderate rain
158,Rawson,AR,-43.3002,-65.1023,57.36,34,1,27.34,clear sky
159,Ixtapa,MX,20.7,-105.2,76.23,73,0,8.05,clear sky
160,Cabo San Lucas,MX,22.8909,-109.9124,78.62,63,0,11.5,clear sky
161,Bengkulu,ID,-3.8004,102.2655,77.59,87,89,3.87,overcast clouds
162,Caravelas,BR,-17.7125,-39.2481,76.23,93,0,4.85,clear sky
163,Hay River,CA,60.8156,-115.7999,40.3,73,97,13.78,overcast clouds
164,Treinta Y Tres,UY,-33.2333,-54.3833,64.51,43,52,9.66,broken clouds
165,Kohima,IN,25.6667,94.1167,69.46,58,0,2.04,clear sky
166,Ponta Do Sol,PT,32.6667,-17.1,65.01,86,100,10.96,light rain
167,Strangnas,SE,59.3774,17.0312,35.94,82,1,5.77,clear sky
168,Norman Wells,CA,65.282,-126.8329,41.86,78,89,3.62,overcast clouds
169,Gigmoto,PH,13.7796,124.39,83.3,81,100,9.91,overcast clouds
170,Batagay,RU,67.6333,134.6333,19.13,85,100,3.33,overcast clouds
171,Kapaa,US,22.0752,-159.319,82.38,74,75,14.97,broken clouds
172,Ribeira Grande,PT,38.5167,-28.7,58.89,75,16,14.09,light rain
173,Hirara,JP,24.8,125.2833,78.33,89,5,12.53,clear sky
174,Rio Grande,BR,-32.035,-52.0986,63.95,85,0,18.19,clear sky
175,Moron,AR,-34.6534,-58.6198,70.05,70,100,9.64,overcast clouds
176,Vardo,NO,70.3705,31.1107,34.88,87,100,5.21,overcast clouds
177,San Patricio,US,28.017,-97.5169,79.9,86,9,16.06,clear sky
178,Sioux Lookout,CA,50.1001,-91.917,33.87,100,100,8.05,overcast clouds
179,Biak,ID,-0.9131,122.8766,83.46,68,4,0.49,clear sky
180,Tiksi,RU,71.6872,128.8694,4.71,95,93,3.53,overcast clouds
181,Shancheng,CN,34.7953,116.0817,66.61,94,100,5.03,moderate rain
182,Karratha,AU,-20.7377,116.8463,82.78,40,100,3.15,light rain
183,Vila Velha,BR,-20.3297,-40.2925,78.75,85,75,13.0,broken clouds
184,Vila Do Maio,CV,15.1333,-23.2167,75.99,80,6,13.04,clear sky
185,Santiago De Cao,PE,-7.9589,-79.2392,60.93,100,100,11.5,mist
186,Saint Anthony,US,45.0205,-93.218,44.2,69,100,21.85,overcast clouds
187,Castro,BR,-24.7911,-50.0119,59.74,94,2,5.21,clear sky
188,Novoagansk,RU,61.9449,76.6625,28.29,97,100,4.81,snow
189,Awjilah,LY,29.1081,21.2869,68.43,46,5,9.4,clear sky
190,Roma,US,43.2128,-75.4557,65.82,42,0,11.5,clear sky
191,Bykovo,RU,55.6361,38.0803,48.61,100,100,4.47,light intensity drizzle
192,Vicuna,CL,-30.0319,-70.7081,62.76,60,0,1.03,clear sky
193,Morgan City,US,29.6994,-91.2068,77.02,94,40,8.48,scattered clouds
194,Buin,CL,-33.7333,-70.75,63.73,78,100,1.7,moderate rain
195,Sao Felix Do Xingu,BR,-6.6447,-51.995,72.52,96,100,1.88,overcast clouds
196,Yerbogachen,RU,61.2767,108.0108,29.48,74,100,7.85,overcast clouds
197,Owando,CG,-0.4819,15.8999,71.44,91,100,1.86,light rain
198,Bethel,US,41.3712,-73.414,50.09,61,0,4.61,clear sky
199,Samarai,PG,-10.6167,150.6667,84.58,69,79,14.52,broken clouds
200,Upernavik,GL,72.7868,-56.1549,0.05,94,40,6.93,scattered clouds
201,Mpanda,TZ,-6.3655,31.0409,65.37,100,100,0.83,moderate rain
202,Codrington,AU,-38.2667,141.9667,64.56,50,90,5.68,overcast clouds
203,Diego De Almagro,CL,-26.3667,-70.05,58.41,60,0,1.16,clear sky
204,Les Cayes,HT,18.2,-73.75,76.17,77,86,4.88,overcast clouds
205,Grand Gaube,MU,-20.0064,57.6608,75.38,71,88,8.01,overcast clouds
206,Fresnillo,MX,23.1667,-102.8833,81.95,12,13,20.74,few clouds
207,Lincoln,US,40.8,-96.667,49.28,53,100,20.71,overcast clouds
208,Belle Fourche,US,44.6714,-103.8522,40.51,90,100,14.43,overcast clouds
209,Kokkola,FI,63.8385,23.1307,34.93,91,0,1.14,clear sky
210,Varhaug,NO,58.6147,5.6457,42.89,72,24,4.43,few clouds
211,Abu Dhabi,AE,24.4667,54.3667,78.96,68,0,1.14,clear sky
212,Vestmannaeyjar,IS,63.4427,-20.2734,45.73,79,4,5.79,clear sky
213,Karpogory,RU,64.0019,44.4451,27.61,95,98,2.66,overcast clouds
214,Xunchang,CN,28.4543,104.715,67.24,79,100,2.26,overcast clouds
215,Lebu,CL,-37.6167,-73.65,51.39,77,7,6.11,clear sky
216,Port Lincoln,AU,-34.7333,135.8667,67.12,70,67,15.21,broken clouds
217,Meulaboh,ID,4.1363,96.1285,79.43,86,99,3.85,overcast clouds
218,Saravan,AM,39.7196,45.6483,50.54,67,100,3.29,overcast clouds
219,Taoudenni,ML,22.6783,-3.9836,77.32,26,0,12.03,clear sky
220,Aklavik,CA,68.2191,-135.0107,33.03,91,100,5.75,overcast clouds
221,Port Townsend,US,48.117,-122.7605,66.81,59,0,11.01,clear sky
222,Groton,US,41.3501,-72.0784,48.02,72,0,4.61,clear sky
223,Sambava,MG,-14.2667,50.1667,74.12,88,94,8.52,light rain
224,Alekseyevsk,RU,57.8406,108.3492,29.95,70,43,7.76,scattered clouds
225,Nizwa,OM,22.9333,57.5333,76.23,43,0,2.1,clear sky
226,Kaitangata,NZ,-46.2817,169.8464,58.05,67,43,18.59,scattered clouds
227,Rocha,UY,-34.4833,-54.3333,65.82,42,0,14.65,clear sky
228,Naryan-Mar,RU,67.6713,53.087,25.48,97,100,8.59,overcast clouds
229,Dikson,RU,73.5069,80.5464,8.78,93,100,16.6,overcast clouds
230,Kyshtovka,RU,56.555,76.6271,33.82,68,72,7.14,broken clouds
231,Broken Hill,AU,-31.95,141.4333,72.25,42,37,17.18,scattered clouds
232,Dunedin,NZ,-45.8742,170.5036,63.81,53,8,11.99,clear sky
233,Vanavara,RU,60.34,102.2797,30.07,75,100,5.28,overcast clouds
234,Geraldton,AU,-28.7667,114.6,72.01,37,100,17.27,overcast clouds
235,Vostok,RU,46.4856,135.8833,45.91,31,100,5.95,overcast clouds
236,Eureka,US,40.8021,-124.1637,66.67,73,20,5.01,few clouds
237,Varca,IN,15.2167,73.9167,80.56,77,5,2.51,clear sky
238,Chicama,PE,-7.8447,-79.1469,59.54,80,88,6.2,overcast clouds
239,Saint-Philippe,RE,-21.3585,55.7679,74.79,77,84,12.86,light rain
240,Narsaq,GL,60.9167,-46.05,41.22,89,100,2.68,overcast clouds
241,Ruangwa,TZ,-10.0667,38.9333,69.67,97,100,2.17,overcast clouds
242,Vao,NC,-22.6667,167.4833,74.64,63,100,22.95,overcast clouds
243,Sistranda,NO,63.7256,8.834,42.76,79,100,6.58,overcast clouds
244,Hamilton,US,39.1834,-84.5333,77.09,54,0,8.05,clear sky
245,Snasa,NO,64.2457,12.3778,37.44,97,100,3.89,overcast clouds
246,Hobyo,SO,5.3505,48.5268,82.78,72,4,11.07,clear sky
247,Yaan,NG,7.3833,8.5667,77.47,75,100,6.89,overcast clouds
248,Buckeye,US,33.3703,-112.5838,87.69,6,0,4.61,clear sky
249,El Rusio,HN,14.4667,-86.3667,73.11,75,44,3.58,scattered clouds
250,Solton,RU,52.8429,86.4787,33.82,70,6,3.18,clear sky
251,Saldanha,ZA,-33.0117,17.9442,57.27,79,0,14.2,clear sky
252,Mount Isa,AU,-20.7333,139.5,69.57,100,100,6.91,light intensity drizzle
253,Hobart,AU,-42.8794,147.3294,57.25,85,75,8.05,broken clouds
254,Siva,EG,29.2041,25.5195,70.75,35,18,8.99,few clouds
255,Revelstoke,CA,50.9832,-118.2023,55.56,83,100,2.35,overcast clouds
256,Aripuana,BR,-9.1667,-60.6333,74.43,93,0,0.74,clear sky
257,Makakilo City,US,21.3469,-158.0858,82.72,51,40,20.71,scattered clouds
258,Turukhansk,RU,65.8167,87.9833,11.32,91,100,5.26,overcast clouds
259,Esperance,AU,-33.8667,121.9,64.15,68,67,9.8,broken clouds
260,Sitka,US,57.0531,-135.33,46.29,76,100,0.0,light rain
261,Kahului,US,20.8947,-156.47,82.42,66,75,21.85,broken clouds
262,Olafsvik,IS,64.8945,-23.7142,45.43,71,79,6.64,broken clouds
263,Gwanda,ZW,-20.9333,29.0,65.73,74,45,3.4,scattered clouds
264,Nador,MA,35.174,-2.9287,57.45,82,0,2.3,clear sky
265,Nome,US,64.5011,-165.4064,38.16,87,100,0.0,overcast clouds
266,Leningradskiy,RU,69.3833,178.4167,22.69,86,93,3.02,overcast clouds
267,Port Hawkesbury,CA,45.6169,-61.3485,37.18,92,100,9.22,overcast clouds
268,Yudong,CN,29.385,106.5194,68.2,80,100,3.71,overcast clouds
269,Touros,BR,-5.1989,-35.4608,76.1,91,100,8.52,overcast clouds
270,Talnakh,RU,69.4865,88.3972,-0.8,97,90,5.1,overcast clouds
271,Kavaratti,IN,10.5669,72.642,84.09,71,5,1.25,clear sky
272,Aloleng,PH,16.1307,119.7824,85.37,67,7,4.63,clear sky
273,Bonavista,CA,48.6499,-53.1147,36.1,93,100,19.8,overcast clouds
274,Stillwater,US,36.1156,-97.0584,65.01,55,75,6.91,broken clouds
275,Bar Harbor,US,44.3876,-68.2039,46.54,49,0,5.75,clear sky
276,Palmer,US,42.1584,-72.3287,51.44,57,40,8.05,scattered clouds
277,Kalanguy,RU,51.0167,116.5167,34.84,54,100,11.45,overcast clouds
278,Meridian,US,43.6121,-116.3915,65.16,19,0,6.91,clear sky
279,Pevek,RU,69.7008,170.3133,13.21,89,86,1.39,overcast clouds
280,Sur,OM,22.5667,59.5289,84.25,43,0,9.66,clear sky
281,Atlantis,ZA,-33.5667,18.4834,55.98,87,0,6.26,clear sky
282,Hami,CN,42.8,93.45,60.64,35,20,19.24,few clouds
283,Alyangula,AU,-13.8483,136.4192,78.67,94,100,6.91,overcast clouds
284,Dawei,MM,14.0833,98.2,83.44,73,55,1.88,broken clouds
285,Bandarbeyla,SO,9.4942,50.8122,81.23,73,66,7.07,broken clouds
286,Jiuquan,CN,39.7432,98.5174,54.59,47,0,7.61,clear sky
287,Belyy Yar,RU,53.6039,91.3903,29.86,64,11,0.0,few clouds
288,Mopti,ML,14.6667,-4.0,88.29,11,95,12.48,overcast clouds
289,Panguna,PG,-6.3164,155.4848,81.37,63,54,2.82,light rain
290,Alofi,NU,-19.0595,-169.9187,78.94,79,99,11.61,light rain
291,Athabasca,CA,54.7169,-113.2854,51.58,57,35,14.99,scattered clouds
292,Haines Junction,CA,60.7522,-137.5108,43.09,70,87,2.51,overcast clouds
293,Japura,ID,-0.3167,102.35,77.77,94,97,1.39,overcast clouds
294,Tecoanapa,MX,16.5167,-98.75,81.48,67,2,6.51,clear sky
295,Parambu,BR,-6.2111,-40.6944,70.75,76,100,1.81,overcast clouds
296,Birjand,IR,32.8663,59.2211,61.52,39,63,8.1,broken clouds
297,Smirnykh,RU,49.75,142.8333,34.84,78,21,17.22,few clouds
298,Ranong,TH,9.9658,98.6348,82.81,78,98,3.06,overcast clouds
299,Montbrison,FR,45.6667,4.0833,52.14,94,99,4.34,overcast clouds
300,Savannah Bight,HN,16.45,-85.85,81.48,74,0,20.24,clear sky
301,Trelew,AR,-43.249,-65.3051,57.29,28,0,28.54,clear sky
302,Jiwani,PK,25.05,61.7417,80.28,81,0,5.01,clear sky
303,Sorland,NO,67.667,12.6934,40.15,91,100,9.86,light rain
304,Torbay,CA,47.6666,-52.7314,37.76,96,100,16.11,light intensity drizzle
305,Hellin,ES,38.5106,-1.701,53.35,56,49,5.82,scattered clouds
306,Balezino,RU,57.9796,53.0106,35.28,99,99,3.09,overcast clouds
307,Murmashi,RU,68.8154,32.8115,34.21,93,40,1.99,scattered clouds
308,Aracati,BR,-4.5617,-37.7697,77.29,87,100,8.66,overcast clouds
309,Bilma,NE,18.6853,12.9164,88.52,9,0,6.93,clear sky
310,Kununurra,AU,-15.7667,128.7333,85.98,42,70,6.91,broken clouds
311,Miri,MY,4.4148,114.0089,79.84,88,100,5.82,overcast clouds
312,Port-Cartier,CA,50.0334,-66.8654,36.75,91,100,5.08,overcast clouds
313,Stepnyak,KZ,52.8339,70.7803,30.78,51,45,4.29,scattered clouds
314,Salinopolis,BR,-0.6136,-47.3561,78.35,86,86,11.59,overcast clouds
315,Shihezi,CN,44.3,86.0333,52.21,42,100,10.78,overcast clouds
316,Yuzhnyy,RU,53.2542,83.6936,30.58,69,0,2.24,clear sky
317,Gamba,GA,-2.65,10.0,77.18,90,100,3.76,overcast clouds
318,Bathsheba,BB,13.2167,-59.5167,79.41,78,40,20.71,scattered clouds
319,Perevoz,RU,55.5961,44.5446,49.37,94,100,7.85,overcast clouds
320,Southbridge,US,42.0751,-72.0334,50.11,64,54,4.7,broken clouds
321,Khasan,RU,42.4308,130.6434,52.41,58,0,6.53,clear sky
322,Thomasville,US,35.8826,-80.082,71.69,69,0,6.24,clear sky
323,Morshansk,RU,53.4435,41.8107,49.6,89,100,7.25,overcast clouds
324,Waipawa,NZ,-41.4122,175.5153,57.07,62,85,2.64,overcast clouds
325,Yar-Sale,RU,66.8333,70.8333,1.53,97,54,4.21,broken clouds
326,Pisco,PE,-13.7,-76.2167,69.03,77,0,6.91,clear sky
327,Santa Isabel,BR,-23.3156,-46.2214,69.1,94,91,3.11,overcast clouds
328,Manitouwadge,CA,49.1215,-85.8403,41.52,98,100,6.22,overcast clouds
329,Asyut,EG,27.181,31.1837,71.76,26,0,7.78,clear sky
330,Ancud,CL,-41.8697,-73.8203,44.22,75,64,21.72,light rain
331,Tasiilaq,GL,65.6145,-37.6368,30.36,68,17,3.24,few clouds
332,Havoysund,NO,70.9963,24.6622,34.03,71,100,8.43,light snow
333,Troitsko-Pechorsk,RU,62.7084,56.1964,33.78,99,100,4.5,overcast clouds
334,Ewo,CG,-0.8725,14.8206,72.27,93,80,1.7,light rain
335,Lamu,KE,-2.2717,40.902,82.13,78,100,9.95,overcast clouds
336,Chigorodo,CO,7.6664,-76.6811,75.52,95,100,2.28,overcast clouds
337,Bundaberg,AU,-24.85,152.35,80.22,64,75,18.41,broken clouds
338,Ploemeur,FR,47.7333,-3.4333,55.62,88,100,1.99,mist
339,Tessalit,ML,20.1986,1.0114,76.37,12,0,8.97,clear sky
340,Dori,BF,14.0354,-0.0345,85.41,11,99,10.51,overcast clouds
341,Hualmay,PE,-11.0964,-77.6139,67.41,86,51,9.69,broken clouds
342,Nordby,DK,55.446,8.3979,42.06,77,13,9.22,few clouds
343,Elmina,GH,5.0898,-1.348,77.88,85,100,2.68,overcast clouds
344,Tuatapere,NZ,-46.1333,167.6833,58.33,69,40,14.7,scattered clouds
345,Broome,US,42.2506,-75.833,72.37,45,20,9.22,few clouds
346,Havre-Saint-Pierre,CA,50.2334,-63.5986,37.71,78,100,15.21,overcast clouds
347,Kalemie,CD,-5.9475,29.1947,69.24,88,100,1.72,light rain
348,Aksu,CN,41.1231,80.2644,67.78,23,100,3.31,overcast clouds
349,Monrovia,LR,6.3005,-10.7969,76.51,89,100,6.46,overcast clouds
350,Salalah,OM,17.0151,54.0924,79.7,77,29,5.28,scattered clouds
351,Forestville,US,38.8451,-76.875,68.61,63,20,9.22,few clouds
352,Namatanai,PG,-3.6667,152.4333,85.41,65,79,3.29,broken clouds
353,Hayden,US,47.766,-116.7866,64.49,33,0,4.61,clear sky
354,Berlevag,NO,70.8578,29.0864,33.6,80,100,6.51,overcast clouds
355,Linqiong,CN,30.4159,103.4609,70.03,67,100,3.65,overcast clouds
356,Arkhangelsk,RU,64.5401,40.5433,23.11,100,20,2.24,few clouds
357,Pokrovskoye,RU,47.4157,38.8971,52.92,86,6,6.33,clear sky
358,Flin Flon,CA,54.7682,-101.865,28.6,58,37,10.47,scattered clouds
359,Key West,US,24.5557,-81.7826,82.4,72,0,19.57,clear sky
360,Akdepe,TM,42.0551,59.3788,57.54,45,27,4.52,scattered clouds
361,Ust-Ilimsk,RU,58.0006,102.6619,25.05,82,100,7.27,overcast clouds
362,Sahuaripa,MX,29.05,-109.2333,85.68,11,0,11.43,clear sky
363,Henties Bay,NA,-22.116,14.2845,58.89,83,0,9.53,clear sky
364,Payo,ID,-3.7508,103.6372,75.87,91,100,0.22,overcast clouds
365,General Roca,AR,-39.0333,-67.5833,59.63,40,22,27.4,few clouds
366,Slave Lake,CA,55.2834,-114.769,54.21,46,100,9.84,overcast clouds
367,Namwala,ZM,-15.7504,26.4384,61.09,89,0,2.44,clear sky
368,Qiongshan,CN,20.0058,110.3542,84.33,70,13,19.24,few clouds
369,Gidam,IN,18.9833,81.4,81.18,40,8,0.78,clear sky
370,Lerwick,GB,60.1545,-1.1494,46.4,88,29,19.06,scattered clouds
371,Vanimo,PG,-2.6741,141.3028,84.49,71,100,4.45,overcast clouds
372,Biltine,TD,14.5333,20.9167,84.69,12,98,2.8,overcast clouds
373,Ossora,RU,59.2353,163.0719,31.14,97,100,16.8,snow
374,Kaeo,NZ,-35.1,173.7833,67.03,63,100,8.7,overcast clouds
375,Kupino,RU,54.3663,77.2981,33.98,51,11,3.51,few clouds
376,Chokurdakh,RU,70.6333,147.9167,8.49,91,25,3.89,scattered clouds
377,Doha,QA,25.2867,51.5333,78.78,69,0,12.66,clear sky
378,Verkhnevilyuysk,RU,63.4453,120.3167,26.94,83,99,4.14,overcast clouds
379,Korla,CN,41.7597,86.1469,66.78,27,96,9.84,overcast clouds
380,Marzuq,YE,14.4,46.4667,68.02,53,5,5.77,clear sky
381,Camopi,GF,3.1655,-52.3158,73.11,99,27,3.29,scattered clouds
382,Pitimbu,BR,-7.4706,-34.8086,77.59,84,23,8.3,few clouds
383,Shahrud,IR,36.4182,54.9763,65.86,36,100,6.02,overcast clouds
384,Lagoa,PT,39.05,-27.9833,57.79,74,0,18.7,clear sky
385,Zhigansk,RU,66.7697,123.3711,16.14,91,91,7.7,overcast clouds
386,Maltahohe,NA,-24.8333,16.9833,49.44,22,0,13.8,clear sky
387,Aykhal,RU,66.0,111.5,17.92,81,23,3.51,few clouds
388,Dakar,SN,14.6937,-17.4441,76.08,77,0,20.13,clear sky
389,Dzhebariki-Khaya,RU,62.2167,135.8,32.43,77,83,0.49,broken clouds
390,Lethem,GY,3.3803,-59.7968,80.08,74,100,7.85,overcast clouds
391,Mayo,US,38.8876,-76.5119,65.26,71,0,11.5,clear sky
392,Skelleftea,SE,64.7507,20.9528,34.16,64,75,2.3,broken clouds
393,Egvekinot,RU,66.3167,-179.1667,22.55,79,20,3.62,few clouds
394,Znamenskoye,RU,57.1281,73.8282,33.69,66,22,5.28,few clouds
395,Howard Springs,AU,-12.497,131.047,91.98,61,100,3.6,overcast clouds
396,Tomatlan,MX,19.9333,-105.25,76.42,62,0,5.53,clear sky
397,Karasuk,RU,53.7377,78.0403,34.5,47,7,2.26,clear sky
398,Mildura,AU,-34.2,142.15,70.07,56,97,11.5,overcast clouds
399,Katsuura,JP,35.1333,140.3,68.58,73,18,1.63,few clouds
400,Barentin,FR,49.5453,0.9552,49.17,85,76,9.42,broken clouds
401,Praia,CV,14.9215,-23.5087,75.74,46,0,14.97,clear sky
402,Odoyev,RU,53.9393,36.6864,41.2,95,8,4.74,clear sky
403,Wagga Wagga,AU,-35.1167,147.3667,70.84,49,42,12.66,scattered clouds
404,Nikolskoye,RU,59.7035,30.7861,44.87,97,100,6.17,light rain
405,Batsfjord,NO,70.6345,29.7185,33.58,93,100,8.05,overcast clouds
406,Namibe,AO,-15.1961,12.1522,69.93,82,1,6.08,clear sky
407,Boa Vista,BR,2.8197,-60.6733,80.58,74,40,3.44,scattered clouds
408,Baykit,RU,61.67,96.37,31.96,88,100,6.4,overcast clouds
409,Mogadishu,SO,2.0371,45.3438,82.53,74,69,9.22,broken clouds
410,Guerrero Negro,MX,27.9769,-114.0611,69.06,49,0,18.03,clear sky
411,Bayan,CN,46.0833,127.4,60.1,30,38,6.73,scattered clouds
412,Odweyne,SO,9.4092,45.064,71.26,74,100,3.98,light rain
413,Ceres,US,37.5949,-120.9577,80.92,23,0,8.05,clear sky
414,Kudahuvadhoo,MV,2.6708,72.8944,84.38,69,73,6.93,broken clouds
415,Manakara,MG,-22.1333,48.0167,71.69,87,99,2.8,light rain
416,Ferrol,ES,43.4832,-8.2369,52.34,89,59,6.98,broken clouds
417,Marovoay,MG,-16.1,46.6333,73.17,76,55,6.13,broken clouds
418,Komsomolskoye,RU,55.2567,47.5461,49.87,83,100,8.25,overcast clouds
419,Naze,JP,28.3667,129.4833,74.21,82,2,6.53,clear sky
420,Timaru,NZ,-44.4,171.25,65.07,65,0,8.99,clear sky
421,Noumea,NC,-22.2763,166.4572,78.01,99,100,17.96,overcast clouds
422,Souillac,MU,-20.5167,57.5167,74.62,75,11,15.14,few clouds
423,Coari,BR,-4.085,-63.1414,75.2,94,67,2.21,broken clouds
424,Atar,MR,20.5169,-13.0499,76.32,32,0,7.61,clear sky
425,Coquimbo,CL,-29.9533,-71.3436,56.93,94,100,1.14,overcast clouds
426,Namioka,JP,40.7072,140.5894,64.9,52,25,5.35,scattered clouds
427,Celestun,MX,20.8667,-90.4,81.91,70,22,15.64,few clouds
428,Taltal,CL,-25.4,-70.4833,63.77,80,0,5.23,clear sky
429,Perbaungan,ID,3.5679,98.956,77.11,82,100,3.87,overcast clouds
430,Formosa Do Rio Preto,BR,-11.0483,-45.1931,72.27,58,73,2.95,broken clouds
431,Faya,SA,18.3851,42.4509,59.52,51,6,1.1,clear sky
432,Kapit,MY,2.0167,112.9333,75.38,99,100,1.83,overcast clouds
433,Hauterive,FR,46.0901,3.4459,52.56,93,99,7.85,overcast clouds
434,Jumla,NP,29.2747,82.1838,52.65,34,0,3.94,clear sky
435,Sakaiminato,JP,35.55,133.2333,66.24,74,65,4.59,broken clouds
436,Joshimath,IN,30.5667,79.5667,57.15,35,24,7.72,few clouds
437,Floro,NO,61.5996,5.0328,44.96,87,66,1.14,broken clouds
438,Kilindoni,TZ,-7.9139,39.6668,81.09,78,98,5.88,light rain
439,Kroya,ID,-7.6331,109.2461,81.14,82,100,3.04,overcast clouds
440,Quesnel,CA,52.9999,-122.5029,60.03,44,100,9.35,overcast clouds
441,Marawi,PH,7.9986,124.2928,78.64,71,65,2.91,broken clouds
442,Ambulu,ID,-8.345,113.6058,80.92,80,39,2.1,scattered clouds
443,Edwardsville,US,38.8114,-89.9532,65.79,94,100,11.5,overcast clouds
444,Morehead,US,37.2711,-87.1764,73.15,60,40,5.75,scattered clouds
445,Sinnamary,GF,5.3833,-52.95,78.13,89,77,9.33,broken clouds
446,Alta Floresta,BR,-9.8756,-56.0861,73.94,94,92,2.82,overcast clouds
447,Gazojak,TM,41.1875,61.4036,58.5,43,13,7.34,few clouds
448,Gumdag,TM,39.2061,54.5906,68.97,30,100,19.51,overcast clouds
449,Bahia Blanca,AR,-38.7196,-62.2724,69.48,56,98,13.78,overcast clouds
450,Xinqing,CN,48.2333,129.5,52.45,41,74,7.23,broken clouds
451,Houma,US,29.5958,-90.7195,77.02,85,40,11.5,scattered clouds
452,Rosetta,EG,31.4044,30.4164,63.25,84,0,8.1,clear sky
453,Matamoros,MX,25.5333,-103.25,93.31,17,40,10.36,scattered clouds
454,Nanortalik,GL,60.1432,-45.2371,37.35,90,100,3.42,overcast clouds
455,Sovetskiy,RU,61.3614,63.5842,29.97,96,71,2.8,broken clouds
456,Sorong,ID,-0.8833,131.25,82.94,76,61,0.6,broken clouds
457,Outjo,NA,-20.1167,16.15,60.42,47,0,7.07,clear sky
458,San Ignacio,BZ,17.1561,-89.0714,82.54,65,0,9.22,clear sky
459,Thabazimbi,ZA,-24.5917,27.4116,64.06,70,31,0.67,scattered clouds
460,Hazorasp,UZ,41.3194,61.0742,49.84,42,32,6.89,scattered clouds
461,Rincon,US,32.296,-81.2354,70.86,64,0,8.05,clear sky
462,Toba,JP,34.4833,136.85,64.4,81,9,2.55,clear sky
463,Chone,EC,-0.6833,-80.1,74.23,94,70,2.93,broken clouds
464,Nantucket,US,41.2835,-70.0995,46.54,67,20,0.0,few clouds
465,Pravia,ES,43.4906,-6.1508,52.09,82,75,6.91,broken clouds
466,Beloha,MG,-25.1667,45.05,71.24,65,100,6.98,overcast clouds
467,Noshiro,JP,40.2039,140.0242,60.85,71,0,7.16,clear sky
468,Fuyang,CN,32.9,115.8167,68.76,98,100,9.33,light rain
469,Cherskiy,RU,68.75,161.3,22.89,80,100,7.25,overcast clouds
470,Zelenets,RU,61.8849,50.7489,28.65,87,100,5.44,overcast clouds
471,Polunochnoye,RU,60.8697,60.4153,30.7,96,98,2.26,overcast clouds
472,Bolitoc,PH,15.7395,119.8769,87.71,60,11,3.06,few clouds
473,Casablanca,MA,33.5928,-7.6192,62.33,67,0,8.01,clear sky
474,Pimentel,PE,-6.8367,-79.9342,67.05,86,58,14.85,broken clouds
475,Yuli,NG,9.6989,10.2744,83.82,58,100,7.85,overcast clouds
476,Cururupu,BR,-1.8283,-44.8683,73.26,93,3,2.66,clear sky
477,Bambous Virieux,MU,-20.3428,57.7575,75.22,72,14,16.49,few clouds
478,Airai,TL,-8.9266,125.4092,72.66,39,99,2.71,overcast clouds
479,Ilulissat,GL,69.2167,-51.1,26.62,93,100,4.61,light snow
480,Nadvoitsy,RU,63.8667,34.3167,26.53,96,32,3.29,scattered clouds
481,Ambo,PE,-10.1308,-76.2047,62.06,92,100,3.94,overcast clouds
482,Mount Gambier,AU,-37.8333,140.7667,65.05,48,100,4.36,overcast clouds
483,Bubaque,GW,11.2833,-15.8333,77.67,73,98,9.08,overcast clouds
484,Guangyuan,CN,32.442,105.823,64.38,64,18,4.92,few clouds
485,Zavyalovo,RU,54.5053,82.4484,32.7,67,70,6.11,broken clouds
486,Sao Joao Da Barra,BR,-21.6403,-41.0511,74.61,82,100,11.92,overcast clouds
487,Buala,SB,-8.145,159.5921,85.68,69,86,6.78,overcast clouds
488,Hede,CN,33.7681,120.2517,62.67,88,100,11.65,light rain
489,Luderitz,NA,-26.6481,15.1594,54.63,62,0,15.99,clear sky
490,Half Moon Bay,US,37.4636,-122.4286,75.54,70,0,21.85,mist
491,Juruti,BR,-2.1522,-56.0922,75.96,89,46,3.71,scattered clouds
492,Orange Cove,US,36.6244,-119.3137,79.97,28,0,3.11,clear sky
493,Ahuimanu,US,21.4447,-157.8378,83.91,65,75,20.71,broken clouds
494,Ust-Maya,RU,60.4167,134.5333,35.47,63,84,1.32,broken clouds
495,Mandalgovi,MN,45.7625,106.2708,34.39,52,12,30.2,few clouds
496,Tamandare,BR,-8.7597,-35.1047,78.17,84,88,8.08,overcast clouds
497,Kalabo,ZM,-14.97,22.6814,65.82,75,38,4.56,scattered clouds
498,Pekan,MY,3.4836,103.3996,81.72,80,100,2.64,overcast clouds
499,Jaque,PA,7.5175,-78.1703,79.43,80,7,0.6,clear sky
500,Saint-Augustin,CA,51.226,-58.6502,37.13,91,100,19.17,overcast clouds
501,Arica,CL,-18.475,-70.3042,64.63,77,0,2.3,clear sky
502,Masuguru,TZ,-11.3667,38.4167,71.83,98,100,2.71,overcast clouds
503,Srednekolymsk,RU,67.45,153.6833,21.18,85,100,16.91,overcast clouds
504,Mumias,KE,0.3351,34.4864,63.64,97,100,2.77,light rain
505,Marsh Harbour,BS,26.5412,-77.0636,74.3,71,4,19.15,clear sky
506,Hun,LY,29.1268,15.9477,64.65,38,16,6.02,few clouds
507,Hofn,IS,64.2539,-15.2082,40.91,90,99,4.81,overcast clouds
508,Gushikawa,JP,26.3544,127.8686,80.6,83,75,8.05,broken clouds
509,Adrar,MR,20.5022,-10.0711,72.01,35,0,10.04,clear sky
510,Xihua,CN,33.7833,114.5167,66.09,91,100,14.74,light rain
511,Sile,TR,41.1754,29.6133,57.87,68,96,3.36,overcast clouds
512,Pangody,RU,65.85,74.4859,11.61,95,97,4.14,overcast clouds
513,Torun,PL,53.0137,18.5981,44.15,88,100,3.0,overcast clouds
514,Byumba,RW,-1.5763,30.0675,57.4,94,100,1.88,light rain
515,Sanford,US,28.8006,-81.2731,75.49,79,0,6.91,clear sky
516,Kirakira,SB,-10.4544,161.9205,84.85,71,100,5.61,overcast clouds
517,San Cristobal,VE,7.7669,-72.225,69.98,98,89,2.04,overcast clouds
518,Watertown,US,42.3709,-71.1828,50.34,45,100,5.75,overcast clouds
519,San Quintin,MX,30.4833,-115.95,69.01,50,0,10.16,clear sky
520,Cascais,PT,38.6979,-9.4215,56.52,74,14,13.0,few clouds
521,Chumikan,RU,54.7183,135.315,31.53,80,100,10.83,overcast clouds
522,Lefka,CY,35.1106,32.8506,66.85,49,0,3.51,clear sky
523,Vila,PT,42.0304,-8.1588,41.88,92,96,3.04,overcast clouds
524,Krasnoarmeysk,RU,51.0239,45.6969,47.82,88,100,5.64,overcast clouds
525,Conde,BR,-7.2597,-34.9075,76.46,94,75,5.75,broken clouds
526,Lewistown,US,40.5992,-77.5714,74.61,53,0,0.0,clear sky
527,Union,US,40.6334,-74.2663,51.3,69,0,8.05,clear sky
528,Comodoro Rivadavia,AR,-45.8667,-67.5,48.06,53,0,35.68,clear sky
529,Okhotsk,RU,59.3833,143.3,31.51,83,25,12.01,scattered clouds
530,Filingue,NE,14.3521,3.3168,86.74,12,100,11.39,overcast clouds
531,Acapulco,MX,16.8634,-99.8901,80.42,78,20,6.91,few clouds
532,Teguise,ES,29.0605,-13.564,57.42,72,0,3.44,clear sky
533,Tartus,SY,34.889,35.8866,66.16,69,5,5.53,clear sky
534,Roverud,NO,60.2521,12.055,37.6,70,100,2.57,overcast clouds
535,Alugan,PH,12.2188,125.4808,81.59,85,100,13.09,overcast clouds
536,Nalut,LY,30.3333,10.85,69.44,14,65,14.29,broken clouds
537,Goderich,CA,43.7501,-81.7165,52.27,96,100,18.25,overcast clouds
538,Clermont,FR,49.5,2.4167,51.71,85,88,8.05,overcast clouds
539,Sosnovo-Ozerskoye,RU,52.5249,111.5418,31.21,42,100,6.26,overcast clouds
540,Newport,GB,51.5877,-2.9984,48.74,74,9,10.78,clear sky
541,Sharjah,AE,25.3573,55.4033,82.38,57,0,4.61,clear sky
542,Santa Marinella,IT,42.0345,11.8536,57.11,98,38,3.4,scattered clouds
543,Sidi Bin Nur,TN,35.5333,10.9167,60.71,74,71,9.73,broken clouds
544,Balikpapan,ID,-1.2675,116.8289,79.79,100,40,4.61,scattered clouds
545,Chase,CA,50.8165,-119.6857,66.15,49,100,6.24,overcast clouds
546,Bluefields,NI,12.0137,-83.7635,77.83,83,0,6.69,clear sky
547,Victoria,HK,22.2855,114.1577,82.96,82,8,7.0,clear sky
548,Valparaiso,CL,-33.0393,-71.6273,59.47,85,75,4.61,broken clouds
549,Otane,NZ,-39.8833,176.6333,58.01,75,100,4.09,overcast clouds
550,Bodden Town,KY,19.2833,-81.25,77.0,82,97,3.0,overcast clouds
551,Kaz,RU,52.9113,87.3105,33.21,71,11,2.53,few clouds
552,Tigil,RU,57.8,158.6667,33.87,98,100,3.62,overcast clouds
553,Cap Malheureux,MU,-19.9842,57.6142,75.47,71,88,8.99,overcast clouds
554,Phalaborwa,ZA,-23.943,31.1411,70.88,61,7,1.83,clear sky
555,Beirut,LB,33.8889,35.4944,66.94,73,75,1.14,mist
556,Port Blair,IN,11.6667,92.75,83.61,65,82,2.73,broken clouds
557,Tombouctou,ML,20.0,-3.0,75.25,26,0,9.69,clear sky
558,Nasturelu,RO,43.6667,25.4667,57.51,82,58,4.18,broken clouds
559,Port-Gentil,GA,-0.7193,8.7815,76.96,94,20,2.3,few clouds
560,Kysyl-Syr,RU,63.8986,122.7617,25.25,77,85,2.55,overcast clouds
561,Ugoofaaru,MV,5.6667,73.0,84.27,70,100,4.63,overcast clouds
562,Eyl,SO,7.9803,49.8164,80.33,76,74,7.63,broken clouds
563,Cayenne,GF,4.9333,-52.3333,81.09,1,20,3.0,few clouds
564,Ijui,BR,-28.3878,-53.9147,69.17,89,0,8.23,clear sky
565,Tazovskiy,RU,67.4667,78.7,-4.65,99,62,4.79,broken clouds
566,Malibu,US,34.005,-118.8101,86.56,25,0,13.24,clear sky
567,Tual,ID,-5.6667,132.75,83.82,66,30,1.92,scattered clouds
568,Fomboni,KM,-12.28,43.7425,82.09,79,96,13.73,light rain
569,Balkanabat,TM,39.5108,54.3671,71.17,27,100,10.02,overcast clouds
570,Tebingtinggi,ID,3.3285,99.1625,80.56,81,82,2.93,broken clouds
571,San Pedro,PH,14.35,121.0167,83.35,75,74,10.38,broken clouds
572,Winslow,US,35.0242,-110.6974,62.78,8,0,11.5,clear sky
573,Ngunguru,NZ,-35.6167,174.5,64.27,72,100,10.04,overcast clouds
574,Serro,BR,-18.6047,-43.3794,66.51,79,31,2.15,scattered clouds
575,Dong Hoi,VN,17.4833,106.6,84.09,72,7,5.35,clear sky
576,Umm Kaddadah,SD,13.6017,26.6876,81.18,8,27,11.07,scattered clouds
577,Pangai,TO,-19.8,-174.35,79.52,68,83,6.02,broken clouds
578,Kyra,RU,49.5776,111.9753,31.41,55,100,10.58,snow
579,Beira,MZ,-19.8436,34.8389,74.01,90,16,5.7,few clouds
580,Artesia,US,33.8658,-118.0831,88.03,25,0,19.57,clear sky
581,Ulladulla,AU,-35.35,150.4667,67.77,70,100,5.46,overcast clouds
582,Dandong,CN,40.1292,124.3947,59.94,84,100,9.08,overcast clouds
583,Daru,PG,-9.0763,143.2092,84.96,70,32,1.39,scattered clouds
584,Dauphin,CA,51.1494,-100.0502,30.34,69,100,23.02,overcast clouds
585,Qaqortoq,GL,60.7167,-46.0333,35.58,90,100,4.05,overcast clouds
586,Galle,LK,6.0367,80.217,80.24,80,100,0.27,light rain
587,Batemans Bay,AU,-35.7167,150.1833,65.1,60,100,3.02,overcast clouds
588,Lipin Bor,RU,60.2622,37.9763,34.97,89,100,9.19,light snow
589,Saint-Georges,GD,12.0564,-61.7485,78.58,76,94,13.69,overcast clouds
590,Erdenet,MN,49.0333,104.0833,21.79,85,100,11.3,snow
591,Kyabe,TD,9.4515,18.9449,83.55,56,90,8.39,overcast clouds
592,Lisakovsk,KZ,52.5369,62.4936,41.54,41,91,4.83,overcast clouds
593,Awbari,LY,26.5921,12.7805,70.66,12,35,10.8,scattered clouds
594,Marsabit,KE,2.3284,37.9899,68.32,75,95,11.3,light rain
595,Camargo,MX,27.6667,-105.1667,87.51,6,0,19.33,clear sky
596,Sisimiut,GL,66.9395,-53.6735,24.08,92,72,1.63,broken clouds
597,Nogliki,RU,51.8333,143.1667,29.75,96,100,12.77,light snow
598,Barao De Melgaco,BR,-16.1944,-55.9675,75.92,80,85,4.59,overcast clouds
599,Kerkini,GR,41.2167,23.0833,58.3,76,10,1.79,clear sky
600,Komsomolskiy,UZ,40.4272,71.7189,57.92,88,100,4.61,mist
601,Chapais,CA,49.7834,-74.8492,36.84,84,100,12.88,overcast clouds
602,Puerto Escondido,MX,15.85,-97.0667,83.23,74,75,0.0,broken clouds
603,Myski,RU,53.709,87.8014,30.11,68,28,3.31,scattered clouds
604,Puerto Quijarro,BO,-17.7833,-57.7667,79.39,70,100,3.89,overcast clouds
605,Niteroi,BR,-22.8833,-43.1036,76.66,71,20,10.36,few clouds
606,Uaua,BR,-9.8414,-39.4817,72.95,71,3,13.73,clear sky
607,Kholtoson,RU,50.2981,103.3097,20.23,60,100,10.22,overcast clouds
608,Terra Santa,BR,-2.1042,-56.4869,75.83,90,27,2.89,scattered clouds
609,Atambua,ID,-9.1061,124.8925,81.46,52,87,1.12,overcast clouds
610,Jiazi,CN,22.8779,116.067,80.19,77,17,4.34,few clouds
611,Lake Havasu City,US,34.4839,-114.3224,80.6,8,0,19.57,clear sky
612,Kieta,PG,-6.2167,155.6333,85.68,67,27,4.25,light rain
613,Honiara,SB,-9.4333,159.95,87.53,63,29,5.39,scattered clouds
614,Prieska,ZA,-29.6641,22.7474,50.88,59,0,4.88,clear sky
615,Hervey Bay,AU,-25.2986,152.8535,75.29,62,100,22.88,overcast clouds
616,Nakusp,CA,50.2499,-117.8023,66.54,24,100,3.44,overcast clouds
617,Qasigiannguit,GL,68.8193,-51.1922,26.85,96,97,0.81,overcast clouds
618,Mount Pleasant,US,32.7941,-79.8626,71.01,84,0,3.44,clear sky
619,Batagay-Alyta,RU,67.8006,130.4114,14.2,82,100,1.07,overcast clouds
620,Vigrestad,NO,58.5667,5.7,40.59,71,20,4.68,few clouds
621,Sabang,ID,5.8933,95.3214,83.25,75,100,4.79,overcast clouds
622,Riyadh,SA,24.6877,46.7219,71.74,66,100,10.76,light rain
623,Campbell River,CA,50.0163,-125.2446,48.58,81,100,9.22,overcast clouds
624,Luba,GQ,3.4568,8.5547,79.77,80,100,1.54,overcast clouds
625,Gravdal,NO,68.1214,13.5031,39.94,83,100,9.6,overcast clouds
626,Oistins,BB,13.0667,-59.5333,78.89,78,40,20.71,scattered clouds
627,Rio Gallegos,AR,-51.6226,-69.2181,44.65,93,100,11.5,drizzle
628,Chibombo,ZM,-14.6569,28.0706,61.38,87,3,3.74,clear sky
629,Akhtubinsk,RU,48.2795,46.1722,54.28,62,100,6.62,moderate rain
630,Inirida,CO,3.8653,-67.9239,74.07,97,100,2.01,heavy intensity rain
631,Shenjiamen,CN,29.9576,122.298,63.86,96,100,18.28,overcast clouds
632,Waingapu,ID,-9.6567,120.2641,82.94,68,100,7.36,overcast clouds
633,Aitape,PG,-3.1374,142.3475,84.58,71,100,3.22,overcast clouds
634,Catuday,PH,16.2923,119.8062,83.43,68,15,6.53,few clouds
635,Tahe,CN,52.3333,124.7333,42.42,27,0,5.35,clear sky
636,Fort Nelson,CA,58.8053,-122.7002,39.69,97,90,5.57,overcast clouds
637,Seymchan,RU,62.8833,152.4333,27.46,71,98,10.38,overcast clouds
638,Keetmanshoop,NA,-26.5833,18.1333,48.06,32,0,4.05,clear sky
639,Los Llanos De Aridane,ES,28.6585,-17.9182,62.35,81,75,10.36,broken clouds
640,Qinzhou,CN,21.95,108.6167,81.75,75,20,10.71,few clouds
641,Taitung,TW,22.7583,121.1444,84.47,79,20,8.05,few clouds
642,Shelburne,CA,44.0787,-80.2041,63.23,63,100,10.8,overcast clouds
643,Saint-Paul,RE,-21.0096,55.2707,75.31,73,97,2.86,overcast clouds
644,Baiquan,CN,47.5833,126.0833,54.27,29,100,0.6,overcast clouds
645,Pascagoula,US,30.3658,-88.5561,75.25,83,20,6.91,few clouds
646,Businga,CD,3.3333,20.8833,70.41,97,99,1.32,moderate rain
647,Nicoya,CR,10.1483,-85.452,80.91,74,68,1.7,broken clouds
648,Marang,MY,5.2056,103.2059,81.61,79,100,2.66,overcast clouds
649,Tarakan,ID,3.3,117.6333,78.3,94,75,2.3,moderate rain
650,Juneau,US,58.3019,-134.4197,46.4,86,100,11.5,light rain
651,Macusani,PE,-14.0833,-70.4333,36.43,92,100,3.91,overcast clouds
652,Zhoucheng,CN,35.9122,116.3117,69.85,74,100,6.6,overcast clouds
653,Dwarka,IN,22.2394,68.9678,80.74,74,0,11.14,clear sky
654,Kaduqli,SD,11.0167,29.7167,86.67,41,40,8.59,scattered clouds
655,Springdale,US,36.1867,-94.1288,59.68,98,100,8.05,thunderstorm with rain
656,Meadow Lake,US,34.8014,-106.5436,67.3,11,0,16.02,clear sky
657,Charleston,US,32.7766,-79.9309,71.02,83,75,6.91,broken clouds
658,Tezu,IN,27.9167,96.1667,70.32,71,100,2.46,overcast clouds
659,Vredendal,ZA,-31.6683,18.5012,50.85,91,0,1.72,clear sky
660,Port Hedland,AU,-20.3167,118.5667,86.05,42,82,6.91,broken clouds
661,Te Anau,NZ,-45.4167,167.7167,59.99,60,43,3.53,scattered clouds
662,Kenai,US,60.5544,-151.2583,53.02,51,100,12.66,overcast clouds
663,Rabaul,PG,-4.1967,152.1721,82.56,70,11,4.32,few clouds
664,Bairiki,KI,1.3292,172.9752,86.0,79,40,16.11,scattered clouds
665,Beyneu,KZ,45.3167,55.2,50.45,63,1,10.83,clear sky
666,San Matias,BO,-16.3667,-58.4,78.21,75,61,5.03,broken clouds
667,Maniitsoq,GL,65.4167,-52.9,26.92,90,100,6.58,overcast clouds
668,Chunhuhub,MX,19.55,-88.6833,79.81,65,18,7.05,few clouds
669,Santa Maria,BR,-29.6842,-53.8069,67.55,85,0,5.97,clear sky
670,Santa Isabel Do Rio Negro,BR,-0.4139,-65.0192,75.06,97,100,2.1,overcast clouds
671,Point Pedro,LK,9.8167,80.2333,81.39,81,11,7.0,few clouds
672,Abu Kamal,SY,34.4506,40.9171,66.96,46,16,7.54,few clouds
673,Dakoro,NE,14.5106,6.765,85.84,11,12,7.65,few clouds
674,Cehegin,ES,38.0924,-1.7985,53.91,65,100,2.21,overcast clouds
675,Tilichiki,RU,60.4667,166.1,27.46,85,100,17.67,light snow
676,Moranbah,AU,-22.0016,148.0466,71.49,67,100,20.42,overcast clouds
677,Vodnany,CZ,49.1479,14.1751,46.76,93,100,3.36,light rain
678,Knysna,ZA,-34.0363,23.0471,55.56,92,100,5.97,moderate rain
679,Magugu,TZ,-4.0167,35.7667,66.74,94,100,2.68,overcast clouds
680,Innisfail,AU,-17.5333,146.0333,76.82,91,100,7.23,light rain
681,Borovoy,RU,55.4333,86.0833,29.48,74,75,4.47,broken clouds
682,Ngoro,ID,-7.6839,112.258,80.53,82,94,2.17,overcast clouds
683,Katsina,NG,12.9894,7.6006,85.17,38,8,11.86,clear sky
684,Chiredzi,ZW,-21.05,31.6667,65.35,76,0,2.68,clear sky
685,Bani,DO,18.2833,-70.3333,76.44,74,16,11.14,few clouds
686,Ibra,OM,22.6906,58.5334,75.9,42,0,1.77,clear sky
687,Jennings,US,38.7192,-90.2604,64.99,92,100,14.0,mist
688,Sechura,PE,-5.5569,-80.8222,70.25,75,79,18.12,broken clouds
689,Synya,RU,65.3718,58.0387,28.2,88,96,2.86,overcast clouds
690,Paita,PE,-5.0892,-81.1144,70.38,78,98,15.61,overcast clouds
691,Las Palmas,ES,28.4204,-14.0131,57.99,63,0,6.91,clear sky
692,Xichang,CN,27.8964,102.2634,65.71,75,76,2.37,broken clouds
693,Tiznit,MA,29.5833,-9.5,53.11,90,95,4.88,overcast clouds
694,Pitkyaranta,RU,61.5734,31.4792,32.56,90,98,10.11,overcast clouds
695,Aleksandrovskoye,RU,44.7142,43.0008,50.47,79,0,2.26,clear sky
696,Mozarlandia,BR,-14.7447,-50.5706,75.24,78,100,3.85,overcast clouds
697,Maceio,BR,-9.6658,-35.7353,78.24,83,75,3.44,broken clouds
698,Padang,ID,-0.9492,100.3543,75.25,80,100,2.57,overcast clouds
699,Vysokogornyy,RU,50.1167,139.15,30.47,85,100,9.69,overcast clouds
700,Ambon,ID,-3.6954,128.1814,95.14,55,40,62.14,scattered clouds
701,Melnikovo,RU,56.5558,84.085,33.26,85,100,5.44,overcast clouds
702,Muros,ES,42.7762,-9.0603,50.85,93,98,6.55,overcast clouds
703,Belmonte,BR,-15.8631,-38.8828,78.03,85,53,8.14,broken clouds
704,Floresta,BR,-8.6011,-38.5686,74.82,67,56,14.36,broken clouds
705,Cristuru Secuiesc,RO,46.2833,25.0333,51.06,85,100,3.22,light rain
706,Ostrovnoy,RU,68.0531,39.5131,33.35,93,100,9.8,overcast clouds
707,Chadiza,ZM,-14.0678,32.4392,61.25,98,69,1.66,broken clouds
708,Havre,FR,49.5833,0.3333,47.97,87,100,11.5,overcast clouds
709,Apac,UG,1.9756,32.5386,65.05,98,100,2.84,light rain
710,Nouakchott,MR,18.0858,-15.9785,73.33,64,0,14.34,clear sky
711,Progreso,MX,21.2833,-89.6667,82.11,73,6,20.92,clear sky
712,Sola,VU,-13.8833,167.55,81.34,71,97,5.08,overcast clouds
713,Lat Yao,TH,15.751,99.7893,88.2,54,65,5.91,broken clouds
714,Qui Nhon,VN,13.7667,109.2333,82.63,75,18,4.63,few clouds
715,Kloulklubed,PW,7.0419,134.2556,81.1,76,66,10.69,broken clouds
716,Reconquista,AR,-29.15,-59.65,75.11,88,69,12.19,broken clouds
717,Arlit,NE,18.7369,7.3853,83.25,11,0,5.88,clear sky
718,Portland,US,45.5234,-122.6762,70.29,41,75,6.91,broken clouds
719,Lufilufi,WS,-13.8745,-171.5986,87.58,76,86,11.32,light rain
720,Mangai,CD,-4.05,19.5333,70.21,96,100,0.51,overcast clouds
721,Nexo,DK,55.0607,15.1306,41.09,87,46,18.48,scattered clouds
722,Lac-Megantic,CA,45.5834,-70.8823,37.9,71,100,5.3,overcast clouds
